[
  {"name": "Vilobí d'Onyar", "lat": 42.1833, "lng": 2.4833},
  {"name": "Aiguafreda", "lat": 41.7128, "lng": 2.3333},
  {"name": "Aiguaviva", "lat": 42.0639, "lng": 2.8061},
  {"name": "Albinyana", "lat": 41.3417, "lng": 1.5833},
  {"name": "Alforja", "lat": 41.2167, "lng": 1.25},
  {"name": "Altafulla", "lat": 41.3333, "lng": 1.3667},
  {"name": "Amer", "lat": 42.1833, "lng": 2.35},
  {"name": "Anglès", "lat": 42.3167, "lng": 2.5167},
  {"name": "Arbúcies", "lat": 41.9833, "lng": 2.3167},
  {"name": "Arenys de Mar", "lat": 41.5417, "lng": 2.5417},
  {"name": "Esparreguera", "lat": 41.6667, "lng": 1.8333},
  {"name": "Igualada", "lat": 41.5833, "lng": 1.6},
  {"name": "Olot", "lat": 42.1833, "lng": 2.3667},
  {"name": "Olèrdola", "lat": 41.6333, "lng": 1.6167},
  {"name": "Balenya", "lat": 41.9167, "lng": 1.9833},
  {"name": "Banyeres del Penedès", "lat": 41.4333, "lng": 1.65},
  {"name": "Banyoles", "lat": 42.11, "lng": 2.76},
  {"name": "Begues", "lat": 41.3667, "lng": 1.8333},
  {"name": "Bellver de Cerdanya", "lat": 42.35, "lng": 1.8333},
  {"name": "Berga", "lat": 42.08, "lng": 1.85},
  {"name": "Bescanó", "lat": 42.0833, "lng": 2.8},
  {"name": "Bigues i Riells", "lat": 41.7167, "lng": 2.0667},
  {"name": "Blanes", "lat": 41.6667, "lng": 2.8},
  {"name": "Breda", "lat": 42.0167, "lng": 2.6333},
  {"name": "Cabrera d'Anoia", "lat": 41.65, "lng": 1.6667},
  {"name": "Cadaqués", "lat": 42.2833, "lng": 3.2833},
  {"name": "Calella", "lat": 41.6167, "lng": 2.6667},
  {"name": "Calldetenes", "lat": 42.0333, "lng": 2.15},
  {"name": "Callus", "lat": 41.7833, "lng": 2.0333},
  {"name": "Camarles", "lat": 40.6667, "lng": 0.8333},
  {"name": "Cambrils", "lat": 41.3583, "lng": 1.0417},
  {"name": "Campelles", "lat": 42.4167, "lng": 2.0833},
  {"name": "Campllong", "lat": 42.2667, "lng": 2.1333},
  {"name": "Camprodon", "lat": 42.35, "lng": 2.35},
  {"name": "Camós", "lat": 42.0833, "lng": 2.85},
  {"name": "Canet d'Adri", "lat": 42.0833, "lng": 2.85},
  {"name": "Canovelles", "lat": 41.65, "lng": 2.35},
  {"name": "Canyelles", "lat": 41.3667, "lng": 1.2},
  {"name": "Capellades", "lat": 41.7, "lng": 1.7},
  {"name": "Cardedeu", "lat": 41.6333, "lng": 2.3667},
  {"name": "Cardona", "lat": 41.95, "lng": 1.7333},
  {"name": "Castell-Platja D'Aro", "lat": 41.8333, "lng": 3.0667},
  {"name": "Castellar del Vallés", "lat": 41.7333, "lng": 2.0333},
  {"name": "Castellbisbal", "lat": 41.75, "lng": 1.7833},
  {"name": "Castellcir", "lat": 41.8333, "lng": 1.85},
  {"name": "Castellgali", "lat": 41.8333, "lng": 1.95},
  {"name": "Castellnou de Bages", "lat": 41.8667, "lng": 1.7167},
  {"name": "Castelloli", "lat": 41.8833, "lng": 1.6667},
  {"name": "Castellvell del Camp", "lat": 41.2667, "lng": 1.1667},
  {"name": "Castellvi de la Marca", "lat": 41.6167, "lng": 1.5},
  {"name": "Castelló D'Empuries", "lat": 42.25, "lng": 3.1},
  {"name": "Centelles", "lat": 41.75, "lng": 2.25},
  {"name": "Cervera", "lat": 41.6667, "lng": 1.3333},
  {"name": "Collsuspina", "lat": 42.0167, "lng": 2.0667},
  {"name": "Corbera de Llobregat", "lat": 41.35, "lng": 1.8833},
  {"name": "Cornella de Llobregat", "lat": 41.3333, "lng": 2.0},
  {"name": "Creixell", "lat": 41.2667, "lng": 1.3667},
  {"name": "Cunit", "lat": 41.25, "lng": 1.5},
  {"name": "Canoves", "lat": 41.7667, "lng": 2.25},
  {"name": "El Bruc", "lat": 41.85, "lng": 1.7833},
  {"name": "Montmany- Figaro", "lat": 41.8, "lng": 1.75},
  {"name": "Flaçà", "lat": 42.0167, "lng": 2.8333},
  {"name": "Folgueroles", "lat": 42.0333, "lng": 2.25},
  {"name": "Fornells de la Selva", "lat": 42.0, "lng": 2.7333},
  {"name": "Fortià", "lat": 42.15, "lng": 2.9},
  {"name": "Girona", "lat": 41.9833, "lng": 2.8},
  {"name": "Gualba", "lat": 41.75, "lng": 2.4167},
  {"name": "Jorba", "lat": 41.75, "lng": 1.6833},
  {"name": "L'Ampolla", "lat": 40.6667, "lng": 0.75},
  {"name": "Escala, L'", "lat": 42.1167, "lng": 3.1833},
  {"name": "L'Esquirol", "lat": 41.95, "lng": 2.3333},
  {"name": "La Bisbal d'Empordà", "lat": 42.05, "lng": 3.05},
  {"name": "La Garriga", "lat": 41.708, "lng": 2.28},
  {"name": "La Granada", "lat": 41.6833, "lng": 2.1667},
  {"name": "La Pera", "lat": 42.0333, "lng": 3.0167},
  {"name": "La Pobla de Claramunt", "lat": 41.6167, "lng": 1.55},
  {"name": "La Riba", "lat": 41.35, "lng": 1.35},
  {"name": "Les Cabanyes", "lat": 41.2167, "lng": 1.3333},
  {"name": "Les Masies de Roda", "lat": 41.4833, "lng": 2.0333},
  {"name": "Planes d'Hostoles", "lat": 42.0667, "lng": 2.6},
  {"name": "Linyola", "lat": 41.7667, "lng": 0.8333},
  {"name": "Lleida", "lat": 41.6167, "lng": 0.6167},
  {"name": "Llinars del Valles", "lat": 41.7333, "lng": 2.3333},
  {"name": "Lliça D'Amunt", "lat": 41.7333, "lng": 2.35},
  {"name": "Maià de Montcal", "lat": 42.0167, "lng": 2.2},
  {"name": "Malgrat de Mar", "lat": 41.65, "lng": 2.7333},
  {"name": "Manlleu", "lat": 42.05, "lng": 2.3},
  {"name": "Manresa", "lat": 41.8333, "lng": 1.8333},
  {"name": "Martorell", "lat": 41.5, "lng": 1.8833},
  {"name": "Martorelles", "lat": 41.6167, "lng": 2.3833},
  {"name": "Masquefa", "lat": 41.6833, "lng": 1.85},
  {"name": "Massanes", "lat": 40.7, "lng": 0.65},
  {"name": "Matadepera", "lat": 41.6667, "lng": 1.95},
  {"name": "Mataro", "lat": 41.5333, "lng": 2.4417},
  {"name": "Maçanet de la Selva", "lat": 42.0333, "lng": 2.6833},
  {"name": "Molins de Rei", "lat": 41.4167, "lng": 1.9167},
  {"name": "Molló", "lat": 42.3667, "lng": 2.0833},
  {"name": "Mont-ras", "lat": 42.0333, "lng": 3.05},
  {"name": "Mont-roig del Camp", "lat": 41.15, "lng": 0.95},
  {"name": "Montblanc", "lat": 41.4167, "lng": 1.2333},
  {"name": "Montesquiu", "lat": 42.05, "lng": 2.1667},
  {"name": "Montgat", "lat": 41.4667, "lng": 2.3167},
  {"name": "Montmelo", "lat": 41.5333, "lng": 2.2667},
  {"name": "Navarcles", "lat": 41.8833, "lng": 1.75},
  {"name": "Navata", "lat": 42.2333, "lng": 2.9333},
  {"name": "Palafolls", "lat": 41.6667, "lng": 2.7},
  {"name": "Palafrugell", "lat": 41.9167, "lng": 3.1667},
  {"name": "Palamós", "lat": 41.85, "lng": 3.1167},
  {"name": "Palau-Solità i Plegamans", "lat": 41.75, "lng": 2.35},
  {"name": "Pallejà", "lat": 41.4, "lng": 1.95},
  {"name": "Palol de Revardit", "lat": 42.1667, "lng": 2.5},
  {"name": "Pals", "lat": 41.95, "lng": 3.1333},
  {"name": "Parets del Vallès", "lat": 41.6, "lng": 2.3667},
  {"name": "Piera", "lat": 41.75, "lng": 1.65},
  {"name": "Pineda de Mar", "lat": 41.6333, "lng": 2.75},
  {"name": "Prats de Lluçanès", "lat": 42.0667, "lng": 2.15},
  {"name": "Ribes de Freser", "lat": 42.3, "lng": 2.2833},
  {"name": "Riells I Viabrea", "lat": 42.0167, "lng": 2.6667},
  {"name": "Riudarenes", "lat": 42.05, "lng": 2.7167},
  {"name": "Roda de Berà", "lat": 41.3333, "lng": 1.5},
  {"name": "Sallent", "lat": 42.0, "lng": 1.9667},
  {"name": "Sant Andreu de la Barca", "lat": 41.35, "lng": 1.9},
  {"name": "Sant Aniol de Finestres", "lat": 42.0833, "lng": 2.8667},
  {"name": "San Celoni", "lat": 41.65, "lng": 2.5},
  {"name": "Sant Cugat del Vallès", "lat": 41.4833, "lng": 2.05},
  {"name": "Sant Cugat Sesgarrigues", "lat": 41.4667, "lng": 1.9167},
  {"name": "Sant Feliu de Codines", "lat": 41.7333, "lng": 2.1667},
  {"name": "Sant Feliu de Guixols", "lat": 41.7833, "lng": 3.05},
  {"name": "Sant Feliu de Pallerols", "lat": 42.1167, "lng": 2.5},
  {"name": "Sant Fruitos de Bages", "lat": 41.9167, "lng": 1.8167},
  {"name": "Sant Gregori", "lat": 42.0333, "lng": 2.8333},
  {"name": "Sant Hilari Sacalm", "lat": 42.1667, "lng": 2.5167},
  {"name": "Sant Jaume dels Domenys", "lat": 41.3667, "lng": 1.5333},
  {"name": "Sant Joan de Vilatorrada", "lat": 41.8667, "lng": 1.8167},
  {"name": "Sant Julià de Vilatorta", "lat": 42.0667, "lng": 2.2167},
  {"name": "Sant Llorenç d'Hortons", "lat": 41.4167, "lng": 1.8167},
  {"name": "Sant Llorenç de la Muga", "lat": 42.1833, "lng": 2.9333},
  {"name": "Sant Martí de Centelles", "lat": 41.8833, "lng": 2.2},
  {"name": "Sant Martí de Llèmena", "lat": 42.0333, "lng": 2.8667},
  {"name": "Sant Martí de Tous", "lat": 41.55, "lng": 1.55},
  {"name": "Sant Pau de Segúries", "lat": 42.25, "lng": 2.3167},
  {"name": "Sant Pere de Ribes", "lat": 41.4, "lng": 1.5833},
  {"name": "Sant Pere de Vilamajor", "lat": 41.7, "lng": 2.55},
  {"name": "Sant Pol de Mar", "lat": 41.6333, "lng": 2.8167},
  {"name": "Sant Quinti de Mediona", "lat": 41.5167, "lng": 1.7333},
  {"name": "Sant Quirze de Besora", "lat": 42.1667, "lng": 2.1667},
  {"name": "Sant Quirze del Vallès", "lat": 41.7167, "lng": 2.0833},
  {"name": "Sant Vicenç de Torello", "lat": 42.0833, "lng": 2.25},
  {"name": "Santa Coloma de Farnérs", "lat": 42.05, "lng": 2.85},
  {"name": "Santa Cristina D'Aro", "lat": 41.8667, "lng": 3.0167},
  {"name": "Santa Eugènia de Berga", "lat": 42.2, "lng": 1.9833},
  {"name": "Santa Eulalia de Ronçana", "lat": 41.7667, "lng": 2.2},
  {"name": "Santa Margarida de Montbuí", "lat": 41.85, "lng": 1.7},
  {"name": "Santa María d'Oló", "lat": 41.9167, "lng": 1.9},
  {"name": "Santa Maria de Besora", "lat": 42.1667, "lng": 2.2},
  {"name": "Santa Maria de Palautordera", "lat": 41.7, "lng": 2.4},
  {"name": "Santa Oliva", "lat": 41.2, "lng": 1.4667},
  {"name": "Santa Pau", "lat": 42.1667, "lng": 2.4833},
  {"name": "Santa Perpetua de Mogoda", "lat": 41.5833, "lng": 2.3},
  {"name": "Santa Susanna", "lat": 41.65, "lng": 2.8},
  {"name": "Sarrià de Dalt", "lat": 41.95, "lng": 2.15},
  {"name": "Saus Camallera I Llampaies", "lat": 42.2333, "lng": 2.9167},
  {"name": "Sentmenat", "lat": 41.7333, "lng": 2.1333},
  {"name": "Sils", "lat": 42.0167, "lng": 2.7167},
  {"name": "Sitges", "lat": 41.2417, "lng": 1.8067},
  {"name": "Siurana", "lat": 41.25, "lng": 1.1833},
  {"name": "Solsona", "lat": 41.9833, "lng": 1.5333},
  {"name": "Subirats", "lat": 41.45, "lng": 1.7667},
  {"name": "Susqueda", "lat": 42.1833, "lng": 2.75},
  {"name": "Súria", "lat": 42.0, "lng": 1.85},
  {"name": "Taradell", "lat": 41.95, "lng": 2.2333},
  {"name": "Tarragona", "lat": 41.1167, "lng": 1.2667},
  {"name": "Teià", "lat": 41.6, "lng": 2.5167},
  {"name": "Tordera", "lat": 41.65, "lng": 2.7167},
  {"name": "Torredembarra", "lat": 41.25, "lng": 1.4333},
  {"name": "Torrelavit", "lat": 41.4417, "lng": 1.5917},
  {"name": "Torrelles de Llobregat", "lat": 41.3667, "lng": 1.9417},
  {"name": "Torrent", "lat": 41.65, "lng": 2.7333},
  {"name": "Torroella de Montgri", "lat": 41.95, "lng": 3.15},
  {"name": "Tossa de Mar", "lat": 41.7333, "lng": 2.95},
  {"name": "Vall-llobrega", "lat": 41.85, "lng": 3.15},
  {"name": "Vallbona D'Anoia", "lat": 41.7, "lng": 1.5667},
  {"name": "Vallgorguina", "lat": 41.7333, "lng": 2.4},
  {"name": "Vallirana", "lat": 41.3667, "lng": 1.9667},
  {"name": "Vallromanes", "lat": 41.6167, "lng": 2.4167},
  {"name": "Valls", "lat": 41.3167, "lng": 1.2667},
  {"name": "Vandellòs i l'Hospitalet de L'Infant", "lat": 41.0667, "lng": 1.25},
  {"name": "Vidreres", "lat": 42.05, "lng": 2.8},
  {"name": "Vidrà", "lat": 42.0167, "lng": 2.0333},
  {"name": "Vilablareix", "lat": 42.0667, "lng": 2.75},
  {"name": "Viladrau", "lat": 41.9167, "lng": 2.4167},
  {"name": "Vilalba Sasserra", "lat": 41.8333, "lng": 2.35},
  {"name": "Vilallonga de Ter", "lat": 42.25, "lng": 2.6667},
  {"name": "Vilanova del Camí", "lat": 41.65, "lng": 1.6333},
  {"name": "Vilanova del Vallès", "lat": 41.7583, "lng": 2.4583},
  {"name": "Vilaverd", "lat": 41.7333, "lng": 0.8167},
  {"name": "El Far d'Empordà", "lat": 42.2833, "lng": 3.2},
  {"name": "Juncosa de Montmell", "lat": 41.3833, "lng": 1.2833},
  {"name": "El Morell", "lat": 41.2333, "lng": 1.3667},
  {"name": "El Palau d'Anglesola", "lat": 41.8333, "lng": 0.8},
  {"name": "El Papiol", "lat": 41.5333, "lng": 1.9167},
  {"name": "El Pla del Penedès", "lat": 41.4333, "lng": 1.7},
  {"name": "El Vendrell", "lat": 41.2667, "lng": 1.4667},
  {"name": "Els Pallaresos", "lat": 41.45, "lng": 0.9167},
  {"name": "El Pla de Santa Maria", "lat": 41.3667, "lng": 1.3167},
  {"name": "La Cellera de Ter", "lat": 42.1833, "lng": 2.8333},
  {"name": "El Pont de Vilomara I Rocafort", "lat": 41.9167, "lng": 1.7667},
  {"name": "Sant Julià del Llor i Bonmatí", "lat": 42.0167, "lng": 2.8},
  {"name": "Sant Salvador de Guardiola", "lat": 41.95, "lng": 1.7833}
]
